[
  {
    "id": 1,
    "name": "Koupaliště",
    "category": "culture",
    "lat": 49.94118305749104,
    "lon": 15.802396578461503,
    "address": "V Průhonech, 537 03 Chrudim 3"
  },
  {
    "id": 2,
    "name": "Penny Market",
    "category": "shop",
    "lat": 49.94396528583114,
    "lon": 15.795834827023077,
    "address": "Obce Ležáků 69, 537 01 Chrudim 1"
  },
  {
    "id": 3,
    "name": "hostinec U Guláška",
    "category": "restaurant",
    "lat": 49.94153774614899,
    "lon": 15.794872740483028,
    "address": "Obce Ležáků 559, 537 01 Chrudim III"
  },
  {
    "id": 4,
    "name": "Základní umělecká škola Chrudim",
    "category": "culture",
    "lat": 49.94442275593551,
    "lon": 15.794563476930646,
    "address": "Obce Ležáků 92, 537 01 Chrudim III"
  },
  {
    "id": 5,
    "name": "Klášterní zahrady",
    "category": "park",
    "lat": 49.95212526536452,
    "lon": 15.798050860285091,
    "address": "Školní nám. 228, 537 01 Chrudim II"
  },
  {
    "id": 6,
    "name": "Divadlo Karla Pippicha",
    "category": "culture",
    "lat": 49.950680726929676,
    "lon": 15.791870505841217,
    "address": "Čs. partyzánů 6, 537 01 Chrudim IV"
  },
  {
    "id": 7,
    "name": "Zš.Dr. Peška Chrudim",
    "category": "school",
    "lat": 49.9489139360706,
    "lon": 15.791856317555448,
    "address": "Husova 9, 537 01 Chrudim III"
  },
  {
    "id": 8,
    "name": "Základní škola - Husovka",
    "category": "school",
    "lat": 49.94893079316937, 
    "lon": 15.792385500381915,
    "address": "Husova 9, 537 01 Chrudim III"
  },
  {
    "id": 9,
    "name": "Restaurace Cleopatra",
    "category": "restaurant",
    "lat": 49.94056907878472, 
    "lon": 15.798034241152445,
    "address": "U Stadionu 765, 537 03 Chrudim III"
  },
  {
    "id": 10,
    "name": "Western na Chrudimce restaurant",
    "category": "restaurant",
    "lat": 49.94061561557263, 
    "lon": 15.798466052315298,
    "address": "U Stadionu 767, 537 03 Chrudim III"
  },
  {
    "id": 11,
    "name": "Pracovní oděvy a obuv Táborský",
    "category": "shop",
    "lat": 49.940246203214954, 
    "lon": 15.79779013565738,
    "address": "U Stadionu 766, 537 03 Chrudim 3"
  },
  {
    "id": 12,
    "name": "Městská Knihovna Chrudim",
    "category": "culture",
    "lat": 49.93933132377057, 
    "lon": 15.797528100047591,
    "address": "U Stadionu 812, 537 03 Chrudim 3"
  },
  {
    "id": 13,
    "name": "Restaurace U Kapličky",
    "category": "restaurant",
    "lat": 49.956561110365406, 
    "lon": 15.809591930570575,
    "address": "269, Malecká, 537 05 Chrudim"
  },
  {
    "id": 14,
    "name": "Základní škola, Chrudim, U Stadionu 756",
    "category": "school",
    "lat": 49.941354664219496, 
    "lon": 15.79919749129442,
    "address": "U Stadionu 756, 537 03 Chrudim 3"
  },
  {
    "id": 15,
    "name": "Stadion Emila Zátopka",
    "category": "culture",
    "lat": 49.94333627628411, 
    "lon": 15.799291541092526,
    "address": "V Průhonech 685, 537 03 Chrudim 3"
  },
  {
    "id": 16,
    "name": "Restaurace GÓÓL",
    "category": "restaurant",
    "lat": 49.94371194154092, 
    "lon": 15.799266246039563,
    "address": "Svatopluka Čecha 405, 537 01 Chrudim III"
  },
  {
    "id": 17,
    "name": "Lidl",
    "category": "shop",
    "lat": 49.95511487940492, 15.797019978088517,
    "lon": 15.797019978088517,
    "address": "Tovární 1395, 537 01 Chrudim 1"
  },
  {
    "id": 18,
    "name": "Workout Park Chrudim",
    "category": "culture",
    "lat": 49.94370631224408, 
    "lon": 15.79869631400468,
    "address": "V Průhonech 685, 537 03 Chrudim III"
  },
  {
    "id": 19,
    "name": "Michalský park",
    "category": "park",
    "lat": 49.95008343000427, 
    "lon": 15.799258500318782,
    "address": "Tyršovo nám. 537 01, 537 01 Chrudim 1"
  },
  {
    "id": 20,
    "name": "Královská cukrárna",
    "category": "café",
    "lat": 49.952040538307635, 
    "lon": 15.792766213410996,
    "address": "Široká 121, 537 01 Chrudim 1"
  },
  {
    "id": 21,
    "name": "Kavárna U Čerta",
    "category": "café",
    "lat": 49.95205520769031, 
    "lon": 15.792481899259288,
    "address": "Široká 24, 537 01 Chrudim 1"
  },
  {
    "id": 22,
    "name": "Pizza La Bella",
    "category": "restaurant",
    "lat": 49.952039869938616, 
    "lon": 15.792975426687637,
    "address": "Široká 123/537 01, 537 01 Chrudim I"
  },
  {
    "id": 23,
    "name": "Městská knihovna Chrudim",
    "category": "culture",
    "lat": 49.95238023251378, 
    "lon": 15.793912411388323,
    "address": "Filištínská 36, 537 01 Chrudim I"
  },
  {
    "id": 24,
    "name": "Čínská Restaurace Yi Pin Xiang",
    "category": "restaurant",
    "lat": 49.952043127022684, 
    "lon": 15.794936659291137,
    "address": "Filištínská 139, 537 01 Chrudim 1"
  },
  {
    "id": 25,
    "name": "Kostel Nanebevzetí Panny Marie",
    "category": "culture",
    "lat": 49.95100312948717, 
    "lon": 15.795520681089622,
    "address": "Komenského, 537 01 Chrudim 1"
  },
  {
    "id": 26,
    "name": "Turistické informační centrum Chrudim",
    "category": "culture",
    "lat": 49.95169968962769, 
    "lon": 15.7947354936137,
    "address": "Resselovo nám. 1/1, 537 01 Chrudim I"
  },
  {
    "id": 27,
    "name": "Kavárna Na Podsíni",
    "category": "café",
    "lat": 49.950987165640875, 
    "lon": 15.793914793614228,
    "address": "Štěpánkova 83, 537 01 Chrudim I"
  },
  {
    "id": 28,
    "name": "Pizzerie Pod Myší Dírou",
    "category": "restaurant",
    "lat": 49.951383431668155, 
    "lon": 15.792827511452435,
    "address": "Štěpánkova 90, 537 01 Chrudim 1"
  },
  {
    "id": 29,
    "name": "Pizza Ardi Chrudim",
    "category": "restaurant",
    "lat": 49.951902041856286, 
    "lon": 15.792022570962166,
    "address": "Široká 1, 537 01 Chrudim 1"
  },
  {
    "id": 30,
    "name": "Restaurace Růžek",
    "category": "restaurant",
    "lat": 49.95186709409068, 
    "lon": 15.791594758624294,
    "address": "Čs. partyzánů 4, 537 01 Chrudim IV"
  },
  {
    "id": 31,
    "name": "Hotel a Restaurace Alfa",
    "category": "restaurant",
    "lat": 49.952128554537275, 
    "lon": 15.791329088165242,
    "address": "Čs. partyzánů 24, 537 01 Chrudim IV"
  },
  {
    "id": 32,
    "name": "Ha Noi Bistro",
    "category": "restaurant",
    "lat": 49.950174901566825, 
    "lon": 15.790787281947912,
    "address": "Husova 246, 537 01 Chrudim 1"
  },
  {
    "id": 33,
    "name": "Bufet Eva",
    "category": "restaurant",
    "lat": 49.94893851066451, 
    "lon": 15.787409391745644,
    "address": "Rooseveltova, 537 01 Chrudim 1"
  },
  {
    "id": 34,
    "name": "POTRAVINY VY",
    "category": "shop",
    "lat": 49.948713493167595, 
    "lon": 15.787485614407707,
    "address": "Čs. Armády 804, 537 01 Chrudim III"
  },
  {
    "id": 35,
    "name": "Bar, který nemá jméno",
    "category": "culture",
    "lat": 49.94737405875833, 
    "lon": 15.791510246162991,
    "address": "Palackého tř., 537 01 Chrudim 1"
  },
  {
    "id": 36,
    "name": "BUFET Dukla Chrudim",
    "category": "restaurant",
    "lat": 49.946919572074925, 
    "lon": 15.791793127105192,
    "address": "Palackého tř. 764, 537 01 Chrudim III"
  },
  {
    "id": 37,
    "name": "Trafika Dája",
    "category": "shop",
    "lat": 49.94656984136965, 
    "lon": 15.792582146819262,
    "address": "Palackého tř., 537 01 Chrudim 1"
  },
  {
    "id": 38,
    "name": "Zimní stadion - HC Chrudim",
    "category": "culture",
    "lat": 49.939977341729644, 
    "lon": 15.803492252274857,
    "address": "V Průhonech 183, 537 04 Chrudim II"
  },
  {
    "id": 39,
    "name": "Skatepark Chrudim",
    "category": "culture",
    "lat": 49.937948964382706, 
    "lon": 15.804995745396365,
    "address": "Dr.Milady Horákové, 537 01 Chrudim 1"
  },
  {
    "id": 40,
    "name": "Tesco Hypermarket Chrudim",
    "category": "shop",
    "lat": 49.93696276388466, 
    "lon": 15.802303574694305,
    "address": "Dr.Milady Horákové 10, 537 01 Chrudim 1"
  },
  {
    "id": 41,
    "name": "Čínská restaurace",
    "category": "restaurant",
    "lat": 49.937279686235, 
    "lon": 15.802199659041891,
    "address": "Dr.Milady Horákové 10, 537 01 Chrudim 1"
  },
  {
    "id": 42,
    "name": "Chrudimská nemocnice",
    "category": "hospital",
    "lat": 49.942146425633815, 
    "lon": 15.807376958367554,
    "address": "Václavská 570, 537 01 Chrudim"
  },
  {
    "id": 43,
    "name": "Mr. Pizza",
    "category": "restaurant",
    "lat": 49.94785743687422, 
    "lon": 15.810553750684367,
    "address": "Slov. nár. povstání, 537 01 Chrudim 1"
  },
  {
    "id": 44,
    "name": "Kaufland Chrudim",
    "category": "shop",
    "lat": 49.94771590795737, 
    "lon": 15.810644945789006,
    "address": "Slov. nár. povstání 1081, 537 01 Chrudim 1"
  },
  {
    "id": 45,
    "name": "Albert",
    "category": "shop",
    "lat": 49.94883560250522, 
    "lon": 15.810311883675267,
    "address": "Slov. nár. povstání 1079, 537 01 Chrudim 5"
  },
  {
    "id": 46,
    "name": "Městská Knihovna Chrudim",
    "category": "culture",
    "lat": 49.951143971667044, 
    "lon": 15.808402821995973,
    "address": "Topolská 36, 537 01 Chrudim 1"
  },
  {
    "id": 47,
    "name": "Restaurace Bowling Stromovka",
    "category": "restaurant",
    "lat": 49.951214731140894, 
    "lon": 15.808684453936774,
    "address": "Družstevní 691, 537 05 Chrudim II"
  },
  {
    "id": 48,
    "name": "Park Střelnice a Ptačí ostrovy",
    "category": "park",
    "lat": 49.95546356077962, 
    "lon": 15.807445945651406,
    "address": "Unnamed Road, 537 05 Chrudim"
  }
]
